id,long1,long2,lat1,lat2,long_center,lat_center,Timestamp1,Timestamp2,time_threshold,location,cc,lc,emp_name
31,24.88592916,24.88586737,36.06367446,36.06371539,24.885898265,36.063694925,01/17/2014 07:36:23,01/17/2014 07:59:01,300,Hallowed Grounds,"[['1/17/2014 7:39', '9617', '15.98'], ['1/17/2014 7:41', '8129', '10.52'], ['1/17/2014 7:52', '1874', '18.6'], ['1/17/2014 7:56', '5010', '9.72'], ['1/17/2014 7:59', '6691', '5.52']]","[['1/17/2014', 'L6267', '5.52'], ['1/17/2014', 'L5777', '9.4'], ['1/17/2014', 'L6119', '14.58'], ['1/17/2014', 'L4424', '18.6'], ['1/17/2014', 'L5553', '15.98'], ['1/17/2014', 'L8012', '3.25'], ['1/17/2014', 'L7814', '18.22'], ['1/17/2014', 'L2459', '9.72']]",Sanjorge Jr. Sten
31,24.89521968,24.89521084,36.07066468,36.07072848,24.89521526,36.07069658,01/18/2014 13:52:36,01/18/2014 14:01:01,300,Chostus Hotel,[],"[['1/18/2014', 'L2459', '600']]",Sanjorge Jr. Sten
31,24.85097225,24.85103141,36.06343218,36.06346345,24.85100183,36.063447815,01/17/2014 12:23:17,01/17/2014 13:29:01,3600,Roberts and Sons,[],[],Sanjorge Jr. Sten
31,24.89991391,24.89992893,36.0545194,36.05451633,24.89992142,36.054517865,01/18/2014 12:39:37,01/18/2014 13:48:01,3600,Katerinas Cafe,"[['1/18/2014 13:15', '6691', '34.54'], ['1/18/2014 13:34', '3484', '19.3']]","[['1/18/2014', 'L6267', '34.54'], ['1/18/2014', 'L6110', '37.26'], ['1/18/2014', 'L9018', '32.68'], ['1/18/2014', 'L6110', '45.88'], ['1/18/2014', 'L4164', '96.36'], ['1/18/2014', 'L1485', '9.72'], ['1/18/2014', 'L6119', '8.14'], ['1/18/2014', 'L4424', '22.74'], ['1/18/2014', 'L5259', '37.21'], ['1/18/2014', 'L2490', '19.3'], ['1/18/2014', 'L2169', '33.41'], ['1/18/2014', 'L8012', '33.63'], ['1/18/2014', 'L9362', '76.1'], ['1/18/2014', 'L2459', '14.22'], ['1/18/2014', 'L9254', '19.31']]",Sanjorge Jr. Sten
31,24.90248831,24.90246659,36.05580186,36.05573638,24.90247745,36.05576912,01/19/2014 18:45:28,01/19/2014 19:46:01,3600,Brew've Been Served,[],[],Sanjorge Jr. Sten
31,24.86072773,24.8607611,36.08957939,36.08960361,24.860744415,36.0895915,01/19/2014 13:19:28,01/19/2014 15:50:01,7200,Desafio Golf Course,"[['1/19/2014 13:51', '8332', '190.91'], ['1/19/2014 15:15', '2463', '110.02'], ['1/19/2014 15:46', '5010', '148.22']]","[['1/19/2014', 'L4164', '145.72'], ['1/19/2014', 'L2070', '190.91'], ['1/19/2014', 'L2459', '148.22'], ['1/19/2014', 'L5224', '150.07'], ['1/19/2014', 'L6886', '110.02']]",Sanjorge Jr. Sten
31,24.89517128,24.89517891,36.07066623,36.07062423,24.895175095,36.07064523,01/19/2014 15:54:28,01/19/2014 18:41:01,7200,Chostus Hotel,[],[],Sanjorge Jr. Sten
31,24.87956954,24.87957551,36.04802796,36.04802525,24.879572525,36.048026605,01/17/2014 08:06:09,01/17/2014 12:15:01,10800,,[],[],Sanjorge Jr. Sten
31,24.87956844,24.8795687,36.04802903,36.04802705,24.87956857,36.04802804000001,01/17/2014 13:37:17,01/17/2014 17:29:01,10800,,[],[],Sanjorge Jr. Sten
